Time: 20:40:8.85
Date: 6/2/2022
Fix: 0 quality: 0
$GPGGA,204009.085,,,,,0,00,,,M,,M,,*7A
$GPRMC,204009.085,V,,,,,0.00,0.00,060222,,,N*4B
$GPGGA,204010.085,,,,,0,00,,,M,,M,,*72
$GPRMC,204010.085,V,,,,,0.00,0.00,060222,,,N*43

Time: 20:40:10.85
Date: 6/2/2022   
Fix: 0 quality: 0
$GPGGA,204011.085,,,,,0,00,,,M,,M,,*73
$GPRMC,204011.085,V,,,,,0.00,0.00,060222,,,N*42
$GPGGA,204012.085,,,,,0,00,,,M,,M,,*70
$GPRMC,204012.085,V,,,,,0.00,0.00,060222,,,N*41

Time: 20:40:12.85
Date: 6/2/2022   
Fix: 0 quality: 0
$GPGGA,204013.085,,,,,0,00,,,M,,M,,*71
$GPRMC,204013.085,V,,,,,0.00,0.00,060222,,,N*40
$GPGGA,204014.085,,,,,0,00,,,M,,M,,*76
$GPRMC,204014.085,V,,,,,0.00,0.00,060222,,,N*47

Time: 20:40:14.85
Date: 6/2/2022   
Fix: 0 quality: 0
$GPGGA,204015.085,,,,,0,00,,,M,,M,,*77
$GPRMC,204015.085,V,,,,,0.00,0.00,060222,,,N*46
$GPGGA,204016.085,,,,,0,00,,,M,,M,,*74
$GPRMC,204016.085,V,,,,,0.00,0.00,060222,,,N*45

Time: 20:40:16.85
Date: 6/2/2022
Fix: 0 quality: 0
$GPGGA,204017.085,,,,,0,00,,,M,,M,,*75
$GPRMC,204017.085,V,,,,,0.00,0.00,060222,,,N*44
$GPGGA,204018.085,,,,,0,00,,,M,,M,,*7A
$GPRMC,204018.085,V,,,,,0.00,0.00,060222,,,N*4B

Time: 20:40:18.85
Date: 6/2/2022
Fix: 0 quality: 0
$GPGGA,204019.085,,,,,0,00,,,M,,M,,*7B
$GPRMC,204019.085,V,,,,,0.00,0.00,060222,,,N*4A
$GPGGA,204020.085,,,,,0,00,,,M,,M,,*71
$GPRMC,204020.085,V,,,,,0.00,0.00,060222,,,N*40

Time: 20:40:20.85
Date: 6/2/2022
Fix: 0 quality: 0
$GPGGA,204021.085,,,,,0,00,,,M,,M,,*70
$GPRMC,204021.085,V,,,,,0.00,0.00,060222,,,N*41
$GPGGA,204022.085,,,,,0,00,,,M,,M,,*73
$GPRMC,204022.085,V,,,,,0.00,0.00,060222,,,N*42

Time: 20:40:22.85
Date: 6/2/2022
Fix: 0 quality: 0
$GPGGA,204023.085,,,,,0,00,,,M,,M,,*72
$GPRMC,204023.085,V,,,,,0.00,0.00,060222,,,N*43
$GPGGA,204024.085,,,,,0,00,,,M,,M,,*75
$GPRMC,204024.085,V,,,,,0.00,0.00,060222,,,N*44

Time: 20:40:24.85
Date: 6/2/2022
Fix: 0 quality: 0
$GPGGA,204025.085,,,,,0,00,,,M,,M,,*74
$GPRMC,204025.085,V,,,,,0.00,0.00,060222,,,N*45
$GPGGA,204026.085,,,,,0,00,,,M,,M,,*77
$GPRMC,204026.085,V,,,,,0.00,0.00,060222,,,N*46
$GPG
Time: 20:40:26.85
Date: 6/2/2022
Fix: 0 quality: 0
GA,204027.085,,,,,0,00,,,M,,M,,*76
$GPRMC,204027.085,V,,,,,0.00,0.00,060222,,,N*47
$GPGGA,204028.085,,,,,0,00,,,M,,M,,*79
$GPRMC,204028.085,V,,,,,0.00,0.00,060222,,,N*48
$GPG
Time: 20:40:28.85
Date: 6/2/2022
Fix: 0 quality: 0
GA,204029.085,,,,,0,00,,,M,,M,,*78
$GPRMC,204029.085,V,,,,,0.00,0.00,060222,,,N*49
$GPGGA,204030.085,,,,,0,00,,,M,,M,,*70
$GPRMC,204030.085,V,,,,,0.00,0.00,060222,,,N*41
$GPG
Time: 20:40:30.85
Date: 6/2/2022
Fix: 0 quality: 0
GA,204031.085,,,,,0,00,,,M,,M,,*71
$GPRMC,204031.085,V,,,,,0.00,0.00,060222,,,N*40
$GPGGA,204032.085,,,,,0,00,,,M,,M,,*72
$GPRMC,204032.085,V,,,,,0.00,0.00,060222,,,N*43
$GPG
Time: 20:40:32.85
Date: 6/2/2022
Fix: 0 quality: 0
GA,204033.085,,,,,0,00,,,M,,M,,*73
$GPRMC,204033.085,V,,,,,0.00,0.00,060222,,,N*42
$GPGGA,204034.085,,,,,0,00,,,M,,M,,*74
$GPRMC,204034.085,V,,,,,0.00,0.00,060222,,,N*45
$GPG
Time: 20:40:34.85
Date: 6/2/2022
Fix: 0 quality: 0
GA,204035.085,,,,,0,00,,,M,,M,,*75
$GPRMC,204035.085,V,,,,,0.00,0.00,060222,,,N*44
$GPGGA,204036.085,,,,,0,00,,,M,,M,,*76
$GPRMC,204036.085,V,,,,,0.00,0.00,060222,,,N*47

Time: 20:40:36.85
Date: 6/2/2022
Fix: 0 quality: 0
$GPGGA,204037.085,,,,,0,00,,,M,,M,,*77
$GPRMC,204037.085,V,,,,,0.00,0.00,060222,,,N*46
$GPGGA,204038.085,,,,,0,00,,,M,,M,,*78
$GPRMC,204038.085,V,,,,,0.00,0.00,060222,,,N*49
$GPGGA,2
Time: 20:40:38.85
Date: 6/2/2022
Fix: 0 quality: 0
04039.085,,,,,0,00,,,M,,M,,*79
$GPRMC,204039.085,V,,,,,0.00,0.00,060222,,,N*48
$GPGGA,204040.085,,,,,0,00,,,M,,M,,*77
$GPRMC,204040.085,V,,,,,0.00,0.00,060222,,,N*46
$GPGGA,2
Time: 20:40:40.85
Date: 6/2/2022
Fix: 0 quality: 0
04041.085,,,,,0,00,,,M,,M,,*76
$GPRMC,204041.085,V,,,,,0.00,0.00,060222,,,N*47
$GPGGA,204042.085,,,,,0,00,,,M,,M,,*75
$GPRMC,204042.085,V,,,,,0.00,0.00,060222,,,N*44
$GPG
Time: 20:40:42.85
Date: 6/2/2022
Fix: 0 quality: 0
GA,204043.085,,,,,0,00,,,M,,M,,*74
$GPRMC,204043.085,V,,,,,0.00,0.00,060222,,,N*45
$GPGGA,204044.085,,,,,0,00,,,M,,M,,*73
$GPRMC,204044.085,V,,,,,0.00,0.00,060222,,,N*42
$GPG
Time: 20:40:44.85
Date: 6/2/2022
Fix: 0 quality: 0
GA,204045.085,,,,,0,00,,,M,,M,,*72
$GPRMC,204045.085,V,,,,,0.00,0.00,060222,,,N*43
$GPGGA,204046.085,,,,,0,00,,,M,,M,,*71
$GPRMC,204046.085,V,,,,,0.00,0.00,060222,,,N*40
$GPGGA,20404
Time: 20:40:46.85
Date: 6/2/2022
Fix: 0 quality: 0
7.085,,,,,0,00,,,M,,M,,*70
$GPRMC,204047.085,V,,,,,0.00,0.00,060222,,,N*41
$GPGGA,204048.085,,,,,0,00,,,M,,M,,*7F
$GPRMC,204048.085,V,,,,,0.00,0.00,060222,,,N*4E
$GPGGA,20404
Time: 20:40:48.85
Date: 6/2/2022
Fix: 0 quality: 0
9.085,,,,,0,00,,,M,,M,,*7E
$GPRMC,204049.085,V,,,,,0.00,0.00,060222,,,N*4F
$GPGGA,204050.085,,,,,0,00,,,M,,M,,*76
$GPRMC,204050.085,V,,,,,0.00,0.00,060222,,,N*47
$GPGGA,204051.08
Time: 20:40:50.85
Date: 6/2/2022
Fix: 0 quality: 0
5,,,,,0,00,,,M,,M,,*77
$GPRMC,204051.085,V,,,,,0.00,0.00,060222,,,N*46

--- exit ---

Terminal will be reused by tasks, press any key to close it.

> Executing task: C:\Users\ian\.platformio\penv\Scripts\platformio.exe device monitor <

--- Available filters and text transformations: colorize, debug, default, direct, hexlify, log2file, nocontrol, printable, send_on_enter, time
--- More details at https://bit.ly/pio-monitor-filters
--- Miniterm on COM3  9600,8,N,1 ---
--- Quit: Ctrl+C | Menu: Ctrl+T | Help: Ctrl+T followed by Ctrl+H ---
$GPGGA,204933.000,5331.8159,N,11331.7217,W,1,04,2.99,247.3,M,-19.7,M,,*54
$GPRMC,204933.000,A,5331.8159,N,11331.7217,W,2.05,8.35,060222,,,A*7D

Time: 20:49:33.0
Date: 6/2/2022
Fix: 1 quality: 1
Location: 5331.8159N, 11331.7217W
Speed (knots): 2.05
Angle: 8.35
Altitude: 247.30
Satellites: 4
$GPGGA,204934.000,5331.8072,N,11331.7231,W,1,04,2.99,261.1,M,-19.7,M,,*59
$GPRMC,204934.000,A,5331.8072,N,11331.7231,W,1.26,3.85,060222,,,A*74
$GPGGA,204935.000,5331.8004,N,11331.7239,W,1,04,2.99,272.7,M,-19.7,M,,*55
$GPRMC,204935.000,A,5331.8004,N,11331.7239,W,0.81,7.31,060222,,,A*7B

Time: 20:49:35.0
Date: 6/2/2022
Fix: 1 quality: 1
Location: 5331.8003N, 11331.7236W
Speed (knots): 0.81
Angle: 7.31
Altitude: 272.70
Satellites: 4
$GPRMC,204936.000,A,5331.7892,N,11331.7253,W,0.18,48.51,060222,,,A*41
$GPGGA,204937.000,5331.7808,N,11331.7261,W,1,04,1.23,304.2,M,-19.7,M,,*56
$GPRMC,204937.000,A,5331.7808,N,11331.7261,W,0.44,161.75,060222,,,A*77

Time: 20:49:37.0
Date: 6/2/2022
Fix: 1 quality: 1
Location: 5331.7808N, 11331.7266W
Speed (knots): 0.44
Angle: 161.75
Altitude: 304.20
Satellites: 4
$GPGGA,204938.000,5331.7746,N,11331.7261,W,1,04,1.23,316.4,M,-19.7,M,,*59
$GPRMC,204938.000,A,5331.7746,N,11331.7261,W,0.69,171.21,060222,,,A*72
$GPGGA,204939.000,5331.7691,N,11331.7261,W,1,04,1.23,327.0,M,-19.7,M,,*55
$GPRMC,204939.000,A,5331.7691,N,11331.7261,W,1.00,179.84,060222,,,A*71

Time: 20:49:39.0
Date: 6/2/2022
Fix: 1 quality: 1
Location: 5331.7690N, 11331.7266W
Speed (knots): 1.00
Angle: 179.84
Altitude: 327.00
Satellites: 4
$GPGGA,204940.000,5331.7631,N,11331.7262,W,1,04,1.23,337.8,M,-19.7,M,,*5B
$GPRMC,204940.000,A,5331.7631,N,11331.7262,W,1.30,183.62,060222,,,A*78
$GPGGA,204941.000,5331.7590,N,11331.7261,W,1,04,1.23,345.8,M,-19.7,M,,*54
$GPRMC,204941.000,A,5331.7590,N,11331.7261,W,1.45,185.93,060222,,,A*78

Time: 20:49:41.0
Date: 6/2/2022
Fix: 1 quality: 1
Location: 5331.7588N, 11331.7266W
Speed (knots): 1.45
Angle: 185.93
Altitude: 345.80
Satellites: 4
$GPGGA,204942.000,5331.7561,N,11331.7260,W,1,04,1.23,351.7,M,-19.7,M,,*52
$GPRMC,204942.000,A,5331.7561,N,11331.7260,W,1.53,191.22,060222,,,A*7C
$GPGGA,204943.000,5331.7545,N,11331.7255,W,1,04,1.23,356.2,M,-19.7,M,,*51
$GPRMC,204943.000,A,5331.7545,N,11331.7255,W,1.25,189.69,060222,,,A*7A

Time: 20:49:43.0
Date: 6/2/2022
Fix: 1 quality: 1
Location: 5331.7544N, 11331.7256W
Speed (knots): 1.25
Angle: 189.69
Altitude: 356.20
Satellites: 4
$GPGGA,204944.000,5331.7536,N,11331.7251,W,1,04,1.23,359.4,M,-19.7,M,,*5F
$GPRMC,204944.000,A,5331.7536,N,11331.7251,W,1.04,186.77,060222,,,A*7E
$GPGGA,204945.000,5331.7528,N,11331.7248,W,1,04,1.23,362.7,M,-19.7,M,,*52
$GPRMC,204945.000,A,5331.7528,N,11331.7248,W,0.88,192.23,060222,,,A*79

Time: 20:49:45.0
Date: 6/2/2022
Fix: 1 quality: 1
Location: 5331.7529N, 11331.7246W
Speed (knots): 0.88
Angle: 192.23
Altitude: 362.70
Satellites: 4
$GPGGA,204946.000,5331.7525,N,11331.7246,W,1,04,1.23,364.1,M,-19.7,M,,*52
$GPRMC,204946.000,A,5331.7525,N,11331.7246,W,0.91,194.91,060222,,,A*7E
$GPGGA,204947.000,5331.7522,N,11331.7241,W,1,04,1.23,365.8,M,-19.7,M,,*5B
$GPRMC,204947.000,A,5331.7522,N,11331.7241,W,0.86,183.72,060222,,,A*72

Time: 20:49:47.0
Date: 6/2/2022
Fix: 1 quality: 1
Location: 5331.7524N, 11331.7236W
Speed (knots): 0.86
Angle: 183.72
Altitude: 365.80
Satellites: 4
$GPGGA,204948.000,5331.7519,N,11331.7241,W,1,04,1.23,367.1,M,-19.7,M,,*57
$GPRMC,204948.000,A,5331.7519,N,11331.7241,W,0.84,187.65,060222,,,A*75
$GPGGA,204949.000,5331.7517,N,11331.7239,W,1,04,1.23,368.5,M,-19.7,M,,*5C
$GPRMC,204949.000,A,5331.7517,N,11331.7239,W,0.75,186.61,060222,,,A*7E

Time: 20:49:49.0
Date: 6/2/2022
Fix: 1 quality: 1
Location: 5331.7515N, 11331.7236W
Speed (knots): 0.75
Angle: 186.61
Altitude: 368.50
Satellites: 4
$GPGGA,204950.000,5331.7513,N,11331.7241,W,1,04,1.23,370.5,M,-19.7,M,,*56
$GPRMC,204950.000,A,5331.7513,N,11331.7241,W,0.78,191.50,060222,,,A*74
$GPGGA,204951.000,5331.7508,N,11331.7243,W,1,04,1.23,373.2,M,-19.7,M,,*5B
$GPRMC,204951.000,A,5331.7508,N,11331.7243,W,0.62,195.45,060222,,,A*76

Time: 20:49:51.0
Date: 6/2/2022
Fix: 1 quality: 1
Location: 5331.7510N, 11331.7246W
Speed (knots): 0.62
Angle: 195.45
Altitude: 373.20
Satellites: 4
$GPGGA,204952.000,5331.7509,N,11331.7243,W,1,04,1.23,375.5,M,-19.7,M,,*58
$GPRMC,204952.000,A,5331.7509,N,11331.7243,W,0.39,193.53,060222,,,A*7B
$GPGGA,204953.000,5331.7504,N,11331.7244,W,1,04,1.23,378.8,M,-19.7,M,,*53
$GPRMC,204953.000,A,5331.7504,N,11331.7244,W,0.18,191.93,060222,,,A*7D

Time: 20:49:53.0
Date: 6/2/2022
Fix: 1 quality: 1
Location: 5331.7505N, 11331.7246W
Speed (knots): 0.18
Angle: 191.93
Altitude: 378.80
Satellites: 4
$GPGGA,204954.000,5331.7494,N,11331.7250,W,1,04,1.23,384.9,M,-19.7,M,,*5B
$GPRMC,204954.000,A,5331.7494,N,11331.7250,W,0.16,254.80,060222,,,A*71
$GPGGA,204955.000,5331.7479,N,11331.7253,W,1,04,1.23,389.4,M,-19.7,M,,*5A
$GPRMC,204955.000,A,5331.7479,N,11331.7253,W,0.19,254.74,060222,,,A*74

Time: 20:49:55.0
Date: 6/2/2022
Fix: 1 quality: 1
Location: 5331.7480N, 11331.7256W
Speed (knots): 0.19
Angle: 254.74
Altitude: 389.40
Satellites: 4
$GPGGA,204956.000,5331.7464,N,11331.7256,W,1,04,1.23,393.8,M,-19.7,M,,*57
$GPRMC,204956.000,A,5331.7464,N,11331.7256,W,0.20,249.48,060222,,,A*77
$GPGGA,204957.000,5331.7447,N,11331.7261,W,1,04,1.23,400.8,M,-19.7,M,,*5E
$GPRMC,204957.000,A,5331.7447,N,11331.7261,W,0.12,213.27,060222,,,A*74