Time: 21:12:0.208
Date: 6/2/2022
Fix: 1 quality: 1
Location: 5331.7407N, 11331.7803W
Speed (knots): 0.19
Angle: 34.58
Altitude: 341.70
Satellites: 5
$GPGGA,211202.000,5331.7902,N,11331.7964,W,1,05,1.93,271.1,M,-19.7,M,,*50
$GPRMC,211202.000,A,5331.7902,N,11331.7964,W,0.10,22.88,060222,,,A*4E
$GPGGA,211203.000,5331.7920,N,11331.7815,W,1,05,1.93,277.1,M,-19.7,M,,*5
Time: 21:12:2.0
Date: 6/2/2022
Fix: 1 quality: 1
Location: 5331.7900N, 11331.7969W
Speed (knots): 0.10
Angle: 22.88
Altitude: 271.10
Satellites: 5
0
$GPRMC,211203.000,A,5331.7920,N,11331.7815,W,0.20,343.86,060222,,,A*71
$GPGGA,211204.000,5331.7877,N,11331.7811,W,1,05,1.93,287.6,M,-19.7,M,,*58
$GPRMC,211204.000,A,5331.7877,N,11331.7811,W,0.17,210.08,060222,,,A*74
$GPGGA,211205.000,5331.7847,N,11331.7795,W,1,05,1.93,298.8,M,-19.7,M,,*59
$GPRMC,211205
Time: 21:12:5.0
Date: 6/2/2022
Fix: 1 quality: 1
Location: 5331.7847N, 11331.7793W
Speed (knots): 0.17
Angle: 210.08
Altitude: 298.80
Satellites: 5
.000,A,5331.7847,N,11331.7795,W,0.13,169.80,060222,,,A*7C
$GPGGA,211206.000,5331.7821,N,11331.7738,W,1,05,1.93,304.8,M,-19.7,M,,*59
$GPRMC,211206.000,A,5331.7821,N,11331.7738,W,0.18,128.05,060222,,,A*7B
$GPGGA,211207.000,5331.7796,N,11331.7696,W,1,05,1.93,310.8,M,-19.7,M,,*5B
$GPRMC,211207
Time: 21:12:7.0
Date: 6/2/2022
Fix: 1 quality: 1
Location: 5331.7798N, 11331.7695W
Speed (knots): 0.18
Angle: 128.05
Altitude: 310.80
Satellites: 5
.000,A,5331.7796,N,11331.7696,W,0.09,132.99,060222,,,A*72
$GPGGA,211208.000,5331.7770,N,11331.7648,W,1,05,1.93,318.2,M,-19.7,M,,*5D
$GPRMC,211208.000,A,5331.7770,N,11331.7648,W,0.07,79.88,060222,,,A*46
$GPGGA,211209.000,5331.7731,N,11331.7636,W,1,05,1.93,328.1,M,-19.7,M,,*50
$GPRMC,211209.000
Time: 21:12:9.0
Date: 6/2/2022
Fix: 1 quality: 1
Location: 5331.7729N, 11331.7637W
Speed (knots): 0.07
Angle: 79.88
Altitude: 328.10
Satellites: 5
,A,5331.7731,N,11331.7636,W,0.11,289.58,060222,,,A*7C
$GPGGA,211210.000,5331.7709,N,11331.7613,W,1,05,1.93,333.7,M,-19.7,M,,*58
$GPRMC,211210.000,A,5331.7709,N,11331.7613,W,0.05,338.76,060222,,,A*7A

Time: 21:12:10.0
Date: 6/2/2022
Fix: 1 quality: 1
Location: 5331.7710N, 11331.7617W
Speed (knots): 0.05
Angle: 338.76
Altitude: 333.70
Satellites: 5
$PGACK,103*40
$PGACK,105*46
$PMTK011,MTKGPS*08
$PMTK010,001*2E
$PMTK010,002*2D
$GPGGA,211212.127,,,,,0,05,,,M,,M,,*7A
$GPRMC,211212.127,V,,,,,0.12,155.66,060222,,,N*4C
$GPGGA,211212.266,,,,,0,00,,,M,,M,,*79
$GPRMC,211212.266,V,,,,,0.12,155.66,060222,,,N*4A

Time: 21:12:12.266
Date: 6/2/2022
Fix: 0 quality: 0
$GPGGA,211213.266,,,,,0,05,,,M,,M,,*7D
$GPRMC,211213.266,V,,,,,0.12,155.66,060222,,,N*4B
$GPGGA,211214.266,,,,,0,00,,,M,,M,,*7F
$GPRMC,211214.266,V,,,,,0.12,155.66,060222,,,N*4C

Time: 21:12:14.266
Date: 6/2/2022
Fix: 0 quality: 0
$GPGGA,211215.266,,,,,0,05,,,M,,M,,*7B
$GPRMC,211215.266,V,,,,,0.12,155.66,060222,,,N*4D
$GPGGA,211216.266,,,,,0,00,,,M,,M,,*7D
$GPRMC,211216.266,V,,,,,0.12,155.66,060222,,,N*4E

Time: 21:12:16.266
Date: 6/2/2022
Fix: 0 quality: 0
$GPGGA,211217.266,,,,,0,05,,,M,,M,,*79
$GPRMC,211217.266,V,,,,,0.44,244.57,060222,,,N*4D
$GPGGA,211218.266,5331.7798,N,11331.7095,W,1,05,1.93,334.1,M,-19.7,M,,*53
$GPRMC,211218.266,A,5331.7798,N,11331.7095,W,0.21,254.16,060222,,,A*7B

Time: 21:12:18.266
Date: 6/2/2022
Fix: 1 quality: 1
Location: 5331.7798N, 11331.7100W
Speed (knots): 0.21
Angle: 254.16
Altitude: 334.10
Satellites: 5
$GPGGA,211220.000,5331.7783,N,11331.7156,W,1,05,1.92,334.0,M,-19.7,M,,*5E
$GPRMC,211220.000,A,5331.7783,N,11331.7156,W,0.39,213.15,060222,,,A*7F
$GPGGA,211221.000,5331.7774,N,11331.7168,W,1,05,1.93,334.0,M,-19.7,M,,*5B
$GPRMC,211221.000,A,5331.
Time: 21:12:21.0
Date: 6/2/2022
Fix: 1 quality: 1
Location: 5331.7773N, 11331.7168W
Speed (knots): 0.39
Angle: 213.15
Altitude: 334.00
Satellites: 5
7774,N,11331.7168,W,0.33,204.69,060222,,,A*7C
$GPGGA,211222.000,5331.7761,N,11331.7198,W,1,05,1.92,334.0,M,-19.7,M,,*52
$GPRMC,211222.000,A,5331.7761,N,11331.7198,W,0.41,242.73,060222,,,A*78
$GPGGA,211223.000,5331.7771,N,11331.7156,W,1,05,1.92,334.0,M,-19.7,M,,*50
$GPRM
Time: 21:12:23.0
Date: 6/2/2022
Fix: 1 quality: 1
Location: 5331.7773N, 11331.7158W
Speed (knots): 0.41
Angle: 242.73
Altitude: 334.00
Satellites: 5
C,211223.000,A,5331.7771,N,11331.7156,W,0.33,253.10,060222,,,A*7A
$GPGGA,211224.000,5331.7719,N,11331.7291,W,1,05,1.92,334.0,M,-19.7,M,,*51
$GPRMC,211224.000,A,5331.7719,N,11331.7291,W,0.30,254.86,060222,,,A*70